[
  {
    "addr": "서울특별시 강남구 봉은사로 465 (삼성동)",
    "code": "11800038",
    "created_at": "2020/07/08 13:00:00",
    "lat": 37.5124855,
    "lng": 127.0504907,
    "name": "신삼성약국",
    "remain_stat": "some",
    "stock_at": "2020/07/07 08:47:00",
    "type": "01"
  },
  {
    "addr": "서울특별시 강남구 봉은사로 469 1층 (삼성동)",
    "code": "12861294",
    "created_at": "2020/07/08 13:00:00",
    "lat": 37.5126016,
    "lng": 127.0508054,
    "name": "삼성도담약국",
    "remain_stat": "few",
    "stock_at": "2020/07/06 10:04:00",
    "type": "01"
  },
  {
    "addr": "서울특별시 강남구 봉은사로73길 5 1층 (삼성동)",
    "code": "12835480",
    "created_at": "2020/07/08 13:00:00",
    "lat": 37.5128053,
    "lng": 127.0507105,
    "name": "해오름약국",
    "remain_stat": "plenty",
    "stock_at": "2020/07/06 08:32:00",
    "type": "01"
  },
  {
    "addr": "서울특별시 강남구 봉은사로 471 204-1호 (삼성동, 힐스테이트2단지상가동)",
    "code": "12836605",
    "created_at": "2020/07/08 13:00:00",
    "lat": 37.5127264,
    "lng": 127.0512686,
    "name": "희영온누리약국",
    "remain_stat": "break",
    "stock_at": "2020/07/06 08:53:00",
    "type": "01"
  },
  {
    "addr": "서울특별시 강남구 봉은사로 474 105호 (삼성동)",
    "code": "11894946",
    "created_at": "2020/07/08 13:00:00",
    "lat": 37.5123688,
    "lng": 127.0519533,
    "name": "자연애약국",
    "remain_stat": "plenty",
    "stock_at": "2020/07/06 10:11:00",
    "type": "01"
  },
  {
    "addr": "서울특별시 강남구 삼성로 620 블래스톤리조트 2층 (삼성동)",
    "code": "12865796",
    "created_at": "2020/07/08 13:00:00",
    "lat": 37.5149738,
    "lng": 127.0526451,
    "name": "아이조은약국",
    "remain_stat": "plenty",
    "stock_at": "2020/07/07 14:05:00",
    "type": "01"
  },
  {
    "addr": "서울특별시 강남구 학동로 421 1층 일부호 (청담동, 원영빌딩)",
    "code": "11847298",
    "created_at": "2020/07/08 13:00:00",
    "lat": 37.5183992,
    "lng": 127.0462942,
    "name": "영진약국",
    "remain_stat": "break",
    "stock_at": "2020/07/07 10:26:00",
    "type": "01"
  },
  {
    "addr": "서울특별시 강남구 학동로 423 102호 (청담동, 청우빌딩)",
    "code": "12848816",
    "created_at": "2020/07/08 13:00:00",
    "lat": 37.5184312,
    "lng": 127.0466482,
    "name": "청담수약국",
    "remain_stat": "empty",
    "stock_at": "2020/07/07 09:29:00",
    "type": "01"
  },
  {
    "addr": "서울특별시 강남구 삼성로 642 106호, 107호 (삼성동, 삼성빌딩)",
    "code": "12824755",
    "created_at": "2020/07/08 13:00:00",
    "lat": 37.5174072,
    "lng": 127.0513431,
    "name": "옵티마대영약국",
    "remain_stat": "plenty",
    "stock_at": "2020/07/07 13:59:00",
    "type": "01"
  },
  {
    "addr": "서울특별시 강남구 학동로 433 1층 (청담동)",
    "code": "11869917",
    "created_at": "2020/07/08 13:00:00",
    "lat": 37.5187786,
    "lng": 127.0483242,
    "name": "생명샘약국",
    "remain_stat": "plenty",
    "stock_at": "2020/07/07 09:04:00",
    "type": "01"
  },
  {
    "addr": "서울특별시 강남구 학동로 443 정한빌딩 1층 103호 (청담동)",
    "code": "12865982",
    "created_at": "2020/07/08 13:00:00",
    "lat": 37.5189469,
    "lng": 127.0493939,
    "name": "청담별빛약국",
    "remain_stat": "plenty",
    "stock_at": "2020/07/06 10:21:00",
    "type": "01"
  },
  {
    "addr": "서울특별시 강남구 삼성로 707 1층 (청담동, 청담빌딩)",
    "code": "12841625",
    "created_at": "2020/07/08 13:00:00",
    "lat": 37.5192717,
    "lng": 127.0496171,
    "name": "타조약국",
    "remain_stat": "plenty",
    "stock_at": "2020/07/06 09:03:00",
    "type": "01"
  },
  {
    "addr": "서울특별시 강남구 학동로 501 4층 일부호 (청담동)",
    "code": "12853976",
    "created_at": "2020/07/08 13:00:00",
    "lat": 37.5191636,
    "lng": 127.0504815,
    "name": "청담명약국",
    "remain_stat": "plenty",
    "stock_at": "2020/07/07 09:03:00",
    "type": "01"
  },
  {
    "addr": "서울특별시 강남구 학동로 503 한성빌딩 1층 106호 (청담동)",
    "code": "11861479",
    "created_at": "2020/07/08 13:00:00",
    "lat": 37.519184,
    "lng": 127.0508086,
    "name": "청담약국",
    "remain_stat": "plenty",
    "stock_at": "2020/07/07 09:14:00",
    "type": "01"
  },
  {
    "addr": "서울특별시 강남구 삼성로 712 지하1층 (청담동)",
    "code": "12837776",
    "created_at": "2020/07/08 13:00:00",
    "lat": 37.5197323,
    "lng": 127.0502063,
    "name": "아이약국",
    "remain_stat": "some",
    "stock_at": "2020/07/06 09:02:00",
    "type": "01"
  },
  {
    "addr": "서울특별시 강남구 봉은사로 524 H112호 (삼성동, 코엑스몰)",
    "code": "12811548",
    "created_at": "2020/07/08 13:00:00",
    "lat": 37.5128784,
    "lng": 127.0572911,
    "name": "팜엑스약국",
    "remain_stat": "empty",
    "stock_at": "2020/07/07 08:38:00",
    "type": "01"
  },
  {
    "addr": "서울특별시 강남구 테헤란로 322 102호 (역삼동, 한신인터밸리24)",
    "code": "11825227",
    "created_at": "2020/07/08 13:00:00",
    "lat": 37.5029975,
    "lng": 127.0465038,
    "name": "샘약국",
    "remain_stat": "plenty",
    "stock_at": "2020/07/07 10:46:00",
    "type": "01"
  },
  {
    "addr": "서울특별시 강남구 테헤란로 326 역삼 아이타워 지하1층 (역삼동)",
    "code": "12845493",
    "created_at": "2020/07/08 13:00:00",
    "lat": 37.5035425,
    "lng": 127.0470436,
    "name": "선릉타워약국",
    "remain_stat": "plenty",
    "stock_at": "2020/07/07 08:31:00",
    "type": "01"
  },
  {
    "addr": "서울특별시 강남구 테헤란로 328 401호 (역삼동, 동우빌딩)",
    "code": "12817643",
    "created_at": "2020/07/08 13:00:00",
    "lat": 37.5037151,
    "lng": 127.0476984,
    "name": "다온약국",
    "remain_stat": "plenty",
    "stock_at": "2020/07/07 15:31:00",
    "type": "01"
  },
  {
    "addr": "서울특별시 강남구 테헤란로 333 지하1층 (역삼동)",
    "code": "12850799",
    "created_at": "2020/07/08 13:00:00",
    "lat": 37.5047001,
    "lng": 127.048034,
    "name": "선릉코코약국",
    "remain_stat": "some",
    "stock_at": "2020/07/06 17:56:00",
    "type": "01"
  },
  {
    "addr": "서울특별시 강남구 테헤란로 337 1층 (역삼동)",
    "code": "12856916",
    "created_at": null,
    "lat": 37.5047776,
    "lng": 127.0484885,
    "name": "테헤란약국",
    "remain_stat": null,
    "stock_at": null,
    "type": "01"
  },
  {
    "addr": "서울특별시 강남구 테헤란로 339 1층 (역삼동)",
    "code": "12868060",
    "created_at": "2020/07/08 13:00:00",
    "lat": 37.5048189,
    "lng": 127.0486102,
    "name": "약사랑약국",
    "remain_stat": "break",
    "stock_at": "2020/07/07 12:58:00",
    "type": "01"
  },
  {
    "addr": "서울특별시 강남구 선릉로 511 1층 일부호 (역삼동, 화신빌딩)",
    "code": "11873566",
    "created_at": "2020/07/08 13:00:00",
    "lat": 37.505111,
    "lng": 127.0483205,
    "name": "킴다나약국",
    "remain_stat": "empty",
    "stock_at": "2020/07/06 09:15:00",
    "type": "01"
  },
  {
    "addr": "서울특별시 강남구 선릉로93길 8 1층 (역삼동)",
    "code": "11873141",
    "created_at": "2020/07/08 13:00:00",
    "lat": 37.5055601,
    "lng": 127.0477358,
    "name": "상지온누리약국",
    "remain_stat": "some",
    "stock_at": "2020/07/07 09:01:00",
    "type": "01"
  },
  {
    "addr": "서울특별시 강남구 선릉로93길 8 1층 (역삼동)",
    "code": "12817414",
    "created_at": "2020/05/31 23:55:00",
    "lat": 37.5055601,
    "lng": 127.0477358,
    "name": "상지온누리약국",
    "remain_stat": "empty",
    "stock_at": "2020/05/28 08:48:00",
    "type": "01"
  },
  {
    "addr": "서울특별시 강남구 선릉로 513 1층 (역삼동, 아펙스타워)",
    "code": "12839264",
    "created_at": null,
    "lat": 37.5052789,
    "lng": 127.0483291,
    "name": "한사랑약국",
    "remain_stat": null,
    "stock_at": null,
    "type": "01"
  },
  {
    "addr": "서울특별시 강남구 선릉로 431 에스케이허브오피스텔 1층 (역삼동)",
    "code": "12833282",
    "created_at": "2020/07/08 13:00:00",
    "lat": 37.5034574,
    "lng": 127.0491411,
    "name": "타임약국",
    "remain_stat": "some",
    "stock_at": "2020/07/07 10:52:00",
    "type": "01"
  },
  {
    "addr": "서울특별시 강남구 테헤란로 403 101호 (삼성동, 리치타워)",
    "code": "12833363",
    "created_at": "2020/07/08 13:00:00",
    "lat": 37.5050919,
    "lng": 127.0495325,
    "name": "강남우리온누리약국",
    "remain_stat": "plenty",
    "stock_at": "2020/07/07 08:47:00",
    "type": "01"
  },
  {
    "addr": "서울특별시 강남구 선릉로 510 1층 (삼성동, 오성빌딩)",
    "code": "12857840",
    "created_at": "2020/07/08 13:00:00",
    "lat": 37.5051717,
    "lng": 127.0489654,
    "name": "선릉수정약국",
    "remain_stat": "plenty",
    "stock_at": "2020/07/07 12:37:00",
    "type": "01"
  },
  {
    "addr": "서울특별시 강남구 테헤란로64길 9 지하1층 101호 (대치동, 선릉역대우아이빌)",
    "code": "12870099",
    "created_at": "2020/07/05 23:55:00",
    "lat": 37.5044976,
    "lng": 127.051631,
    "name": "펜타약국",
    "remain_stat": "plenty",
    "stock_at": "2020/07/01 08:59:00",
    "type": "01"
  },
  {
    "addr": "서울특별시 강남구 테헤란로 421 (삼성동, 1층 일부)",
    "code": "11836661",
    "created_at": "2020/07/08 13:00:00",
    "lat": 37.5059949,
    "lng": 127.0525555,
    "name": "삼성일신약국",
    "remain_stat": "some",
    "stock_at": "2020/07/07 08:09:00",
    "type": "01"
  },
  {
    "addr": "서울특별시 강남구 삼성로 520 1층 (삼성동)",
    "code": "12864200",
    "created_at": "2020/07/08 13:00:00",
    "lat": 37.5086989,
    "lng": 127.0559332,
    "name": "삼성해든약국",
    "remain_stat": "plenty",
    "stock_at": "2020/07/07 15:08:00",
    "type": "01"
  },
  {
    "addr": "서울특별시 강남구 삼성로 549 (삼성동, 정화빌딩)",
    "code": "11800178",
    "created_at": "2020/07/08 13:00:00",
    "lat": 37.5106027,
    "lng": 127.0542916,
    "name": "은약국",
    "remain_stat": "empty",
    "stock_at": "2020/07/07 10:29:00",
    "type": "01"
  },
  {
    "addr": "서울특별시 강남구 선릉로129길 22 1층 (논현동)",
    "code": "12810541",
    "created_at": "2020/07/08 13:00:00",
    "lat": 37.5161365,
    "lng": 127.0396693,
    "name": "논현약국",
    "remain_stat": "break",
    "stock_at": "2020/07/07 10:10:00",
    "type": "01"
  },
  {
    "addr": "서울특별시 강남구 선릉로 612 한일빌딩 1층 (삼성동)",
    "code": "12868612",
    "created_at": "2020/07/08 13:00:00",
    "lat": 37.511524,
    "lng": 127.0437495,
    "name": "청담밝은약국",
    "remain_stat": "empty",
    "stock_at": "2020/07/07 09:50:00",
    "type": "01"
  },
  {
    "addr": "서울특별시 강남구 선릉로 641 1층 일부호 (논현동)",
    "code": "12853402",
    "created_at": "2020/07/08 13:00:00",
    "lat": 37.5137633,
    "lng": 127.0423077,
    "name": "논현필리아약국",
    "remain_stat": "plenty",
    "stock_at": "2020/07/06 08:52:00",
    "type": "01"
  },
  {
    "addr": "서울특별시 강남구 선릉로 654 1층 (삼성동, 예인빌딩)",
    "code": "11894920",
    "created_at": "2020/07/08 13:00:00",
    "lat": 37.515084,
    "lng": 127.0423767,
    "name": "국풍당약국",
    "remain_stat": "plenty",
    "stock_at": "2020/07/07 08:38:00",
    "type": "01"
  },
  {
    "addr": "서울특별시 강남구 선릉로130길 20 209호 (삼성동, 래미안삼성2차아파트상가동)",
    "code": "12849014",
    "created_at": "2020/07/08 13:00:00",
    "lat": 37.515984,
    "lng": 127.0433374,
    "name": "청담이화약국",
    "remain_stat": "empty",
    "stock_at": "2020/07/07 09:02:00",
    "type": "01"
  },
  {
    "addr": "서울특별시 강남구 학동로 313 1층 일부호 (논현동)",
    "code": "12828769",
    "created_at": "2020/07/08 13:00:00",
    "lat": 37.5162518,
    "lng": 127.037436,
    "name": "논현사랑약국",
    "remain_stat": "plenty",
    "stock_at": "2020/07/07 10:47:00",
    "type": "01"
  },
  {
    "addr": "서울특별시 강남구 학동로 323 (논현동)",
    "code": "11897929",
    "created_at": "2020/07/08 13:00:00",
    "lat": 37.51658,
    "lng": 127.0383546,
    "name": "강남프라자약국",
    "remain_stat": "plenty",
    "stock_at": "2020/07/07 09:05:00",
    "type": "01"
  },
  {
    "addr": "서울특별시 강남구 학동로 338 S102호 (논현동, 강남파라곤)",
    "code": "11829699",
    "created_at": "2020/07/08 13:00:00",
    "lat": 37.5165684,
    "lng": 127.0401763,
    "name": "소망온누리약국",
    "remain_stat": "plenty",
    "stock_at": "2020/07/07 10:00:00",
    "type": "01"
  },
  {
    "addr": "서울특별시 강남구 선릉로131길 8 13호 (논현동)",
    "code": "11881674",
    "created_at": "2020/07/08 13:00:00",
    "lat": 37.5179871,
    "lng": 127.0402998,
    "name": "노벨약국",
    "remain_stat": "some",
    "stock_at": "2020/07/07 13:04:00",
    "type": "01"
  },
  {
    "addr": "서울특별시 강남구 학동로 342 308-1호 (논현동, SK허브빌딩)",
    "code": "12844071",
    "created_at": "2020/07/05 23:55:00",
    "lat": 37.5166739,
    "lng": 127.0405659,
    "name": "미네랄약국",
    "remain_stat": "empty",
    "stock_at": "2020/07/04 09:29:00",
    "type": "01"
  },
  {
    "addr": "서울특별시 강남구 학동로 342 407-2호 (논현동, SK허브블루)",
    "code": "12840866",
    "created_at": "2020/07/08 13:00:00",
    "lat": 37.5166742,
    "lng": 127.0405662,
    "name": "웰팜약국",
    "remain_stat": "break",
    "stock_at": "2020/07/07 09:55:00",
    "type": "01"
  },
  {
    "addr": "서울특별시 강남구 선릉로 669 상경빌딩 지하1층 (논현동)",
    "code": "12844837",
    "created_at": "2020/07/08 13:00:00",
    "lat": 37.5166379,
    "lng": 127.041237,
    "name": "올리브약국",
    "remain_stat": "plenty",
    "stock_at": "2020/07/07 08:51:00",
    "type": "01"
  },
  {
    "addr": "서울특별시 강남구 선릉로 670 1층 일부호 (삼성동, 해운빌딩)",
    "code": "12840564",
    "created_at": "2020/07/08 13:00:00",
    "lat": 37.516703,
    "lng": 127.0417196,
    "name": "삼성건강약국",
    "remain_stat": "plenty",
    "stock_at": "2020/07/07 08:21:00",
    "type": "01"
  },
  {
    "addr": "서울특별시 강남구 학동로 342 109호 (논현동, SK허브빌딩)",
    "code": "11896736",
    "created_at": "2020/07/08 13:00:00",
    "lat": 37.51688938,
    "lng": 127.0410534,
    "name": "강남허브약국",
    "remain_stat": "plenty",
    "stock_at": "2020/07/07 08:58:00",
    "type": "01"
  },
  {
    "addr": "서울특별시 강남구 선릉로 705 1층 (논현동)",
    "code": "12866741",
    "created_at": "2020/07/08 13:00:00",
    "lat": 37.517959,
    "lng": 127.0407761,
    "name": "논현수약국",
    "remain_stat": "empty",
    "stock_at": "2020/07/06 10:59:00",
    "type": "01"
  },
  {
    "addr": "서울특별시 강남구 학동로 411 4층 403호 (청담동)",
    "code": "12820580",
    "created_at": "2020/07/08 13:00:00",
    "lat": 37.5181016,
    "lng": 127.044728,
    "name": "세명약국",
    "remain_stat": "plenty",
    "stock_at": "2020/07/06 08:58:00",
    "type": "01"
  },
  {
    "addr": "서울특별시 강남구 학동로 413 청담빌딩 2층 (청담동)",
    "code": "12863700",
    "created_at": "2020/07/05 23:55:00",
    "lat": 37.5181798,
    "lng": 127.0451947,
    "name": "가온약국",
    "remain_stat": "empty",
    "stock_at": "2020/07/03 08:26:00",
    "type": "01"
  },
  {
    "addr": "서울특별시 강남구 선릉로 719 1층 일부호 (논현동)",
    "code": "12850101",
    "created_at": "2020/07/08 13:00:00",
    "lat": 37.5189081,
    "lng": 127.0404201,
    "name": "굿케어약국",
    "remain_stat": "plenty",
    "stock_at": "2020/07/06 09:01:00",
    "type": "01"
  },
  {
    "addr": "서울특별시 강남구 언주로 508 (역삼동, 상록회관내)",
    "code": "11846046",
    "created_at": "2020/07/08 13:00:00",
    "lat": 37.5039653,
    "lng": 127.0427681,
    "name": "상록약국",
    "remain_stat": "plenty",
    "stock_at": "2020/07/07 09:25:00",
    "type": "01"
  },
  {
    "addr": "서울특별시 강남구 언주로 601 파크랜드빌딩 지하1층 4,5호 (논현동)",
    "code": "11845821",
    "created_at": "2020/07/08 13:00:00",
    "lat": 37.5088657,
    "lng": 127.0377994,
    "name": "늘푸른약국",
    "remain_stat": "plenty",
    "stock_at": "2020/07/07 12:48:00",
    "type": "01"
  },
  {
    "addr": "서울특별시 강남구 봉은사로43길 8 1층 (논현동)",
    "code": "12815659",
    "created_at": "2020/07/08 13:00:00",
    "lat": 37.5098079,
    "lng": 127.0399697,
    "name": "희병약국",
    "remain_stat": "empty",
    "stock_at": "2020/07/07 10:14:00",
    "type": "01"
  },
  {
    "addr": "서울특별시 강남구 언주로108길 15 (역삼동)",
    "code": "11801051",
    "created_at": "2020/07/08 13:00:00",
    "lat": 37.5085412,
    "lng": 127.0405205,
    "name": "호원약국",
    "remain_stat": "plenty",
    "stock_at": "2020/07/06 09:03:00",
    "type": "01"
  },
  {
    "addr": "서울특별시 강남구 봉은사로 327 궁도빌딩 1층 (논현동)",
    "code": "12818739",
    "created_at": "2020/07/08 13:00:00",
    "lat": 37.5101956,
    "lng": 127.0426534,
    "name": "선정릉약국",
    "remain_stat": "some",
    "stock_at": "2020/07/06 11:06:00",
    "type": "01"
  },
  {
    "addr": "서울특별시 강남구 봉은사로 331 지하1층 일부호 (논현동)",
    "code": "12826961",
    "created_at": "2020/07/08 13:00:00",
    "lat": 37.5102889,
    "lng": 127.0429841,
    "name": "정약국",
    "remain_stat": "break",
    "stock_at": "2020/07/07 09:08:00",
    "type": "01"
  },
  {
    "addr": "서울특별시 강남구 봉은사로54길 9 1층 (역삼동)",
    "code": "12821977",
    "created_at": "2020/07/08 13:00:00",
    "lat": 37.5093737,
    "lng": 127.0437708,
    "name": "선능약국",
    "remain_stat": "few",
    "stock_at": "2020/07/07 08:34:00",
    "type": "01"
  },
  {
    "addr": "서울특별시 강남구 선릉로 567 1층 일부호 (역삼동)",
    "code": "12846058",
    "created_at": "2020/07/08 13:00:00",
    "lat": 37.5090876,
    "lng": 127.0440696,
    "name": "싱싱약국",
    "remain_stat": "break",
    "stock_at": "2020/07/07 09:20:00",
    "type": "01"
  }
]
